,Country name,Ladder score,Country,Region,Population,Area (sq. mi.),Pop. Density (per sq. mi.),Coastline (coast/area ratio),Net migration,Infant mortality (per 1000 births),GDP ($ per capita),Literacy (%),Phones (per 1000),Arable (%),Crops (%),Other (%),Climate,Birthrate,Deathrate,Agriculture,Industry,Service,Cluster,Regional indicator,country,latitude,longitude,name
0,Finland,7.808700085,Finland,WESTERN EUROPE                     ,5231372.0,338145.0,15.5,0.37,0.95,3.57,27400.0,100.0,405.3,7.19,0.03,92.78,3.0,10.45,9.86,0.03,0.3,0.68,1,Western Europe,FI,61.92411,25.748151,Finland
1,Denmark,7.645599842,Denmark,WESTERN EUROPE                     ,5450661.0,43094.0,126.5,16.97,2.48,4.56,31100.0,100.0,614.6,54.02,0.19,45.79,3.0,11.13,10.36,0.02,0.25,0.74,1,Western Europe,DK,56.26392,9.501785,Denmark
2,Switzerland,7.559899807000001,Switzerland,WESTERN EUROPE                     ,7523934.0,41290.0,182.2,0.0,4.05,4.39,32700.0,99.0,680.9,10.42,0.61,88.97,3.0,9.71,8.49,0.02,0.34,0.65,1,Western Europe,CH,46.818188,8.227511999999999,Switzerland
3,Iceland,7.504499912000001,Iceland,WESTERN EUROPE                     ,299388.0,103000.0,2.9,4.83,2.38,3.31,30900.0,99.9,647.7,0.07,0.0,99.93,3.0,13.64,6.72,0.09,0.15,0.77,1,Western Europe,IS,64.96305100000001,-19.020835,Iceland
4,Norway,7.487999916000001,Norway,WESTERN EUROPE                     ,4610820.0,323802.0,14.2,7.77,1.74,3.7,37800.0,100.0,461.7,2.87,0.0,97.13,3.0,11.46,9.4,0.02,0.42,0.56,1,Western Europe,NO,60.472024,8.468946,Norway
5,Netherlands,7.448900223,Netherlands,WESTERN EUROPE                     ,16491461.0,41526.0,397.1,1.09,2.91,5.04,28600.0,99.0,460.8,26.71,0.97,72.32,3.0,10.9,8.68,0.02,0.24,0.74,1,Western Europe,NL,52.132633,5.291266,Netherlands
6,Sweden,7.353499889,Sweden,WESTERN EUROPE                     ,9016596.0,449964.0,20.0,0.72,1.67,2.77,26800.0,99.0,715.0,6.54,0.01,93.45,3.0,10.27,10.31,0.01,0.28,0.71,1,Western Europe,SE,60.128161,18.643501,Sweden
7,New Zealand,7.2996001239999995,New Zealand,OCEANIA                            ,4076140.0,268680.0,15.2,5.63,4.05,5.85,21600.0,99.0,441.7,5.6,6.99,87.41,3.0,13.76,7.53,0.04,0.27,0.68,1,North America and ANZ,NZ,-40.900557,174.88597099999998,New Zealand
8,Austria,7.294199944,Austria,WESTERN EUROPE                     ,8192880.0,83870.0,97.7,0.0,2.0,4.66,30000.0,98.0,452.2,16.91,0.86,82.23,3.0,8.74,9.76,0.02,0.3,0.68,1,Western Europe,AT,47.516231,14.550072,Austria
9,Luxembourg,7.2375001910000005,Luxembourg,WESTERN EUROPE                     ,474413.0,2586.0,183.5,0.0,8.97,4.81,55100.0,100.0,515.4,23.28,0.4,76.32,,11.94,8.41,0.01,0.13,0.86,3,Western Europe,LU,49.815273,6.129583,Luxembourg
10,Canada,7.23210001,Canada,NORTHERN AMERICA                   ,33098932.0,9984670.0,3.3,2.02,5.96,4.75,29800.0,97.0,552.2,4.96,0.02,95.02,,10.78,7.8,0.02,0.29,0.68,1,North America and ANZ,CA,56.130366,-106.34677099999999,Canada
11,Australia,7.222799778,Australia,OCEANIA                            ,20264082.0,7686850.0,2.6,0.34,3.98,4.69,29000.0,100.0,565.5,6.55,0.04,93.41,1.0,12.14,7.51,0.04,0.26,0.7,1,North America and ANZ,AU,-25.274398,133.775136,Australia
12,United Kingdom,7.164500237,United Kingdom,WESTERN EUROPE                     ,60609153.0,244820.0,247.6,5.08,2.19,5.16,27700.0,99.0,543.5,23.46,0.21,76.33,3.0,10.71,10.13,0.01,0.24,0.76,1,Western Europe,GB,55.378051,-3.435973,United Kingdom
13,Israel,7.128600121,Israel,NEAR EAST                          ,6352117.0,20770.0,305.8,1.31,0.68,7.03,19800.0,95.4,462.3,16.39,4.17,79.44,3.0,17.97,6.18,0.03,0.32,0.66,2,Middle East and North Africa,IL,31.046051000000002,34.851612,Israel
14,Costa Rica,7.121399879,Costa Rica,LATIN AMER. & CARIB    ,4075261.0,51100.0,79.8,2.52,0.51,9.95,9100.0,96.0,340.7,4.41,5.88,89.71,2.0,18.32,4.36,0.09,0.3,0.61,2,Latin America and Caribbean,CR,9.748917,-83.753428,Costa Rica
15,Ireland,7.093699932000001,Ireland,WESTERN EUROPE                     ,4062235.0,70280.0,57.8,2.06,4.99,5.39,29600.0,98.0,500.5,15.2,0.03,84.77,3.0,14.45,7.82,0.05,0.46,0.49,1,Western Europe,IE,53.41291,-8.243889999999999,Ireland
16,Germany,7.075799942000001,Germany,WESTERN EUROPE                     ,82422299.0,357021.0,230.9,0.67,2.18,4.16,27600.0,99.0,667.9,33.85,0.59,65.56,3.0,8.25,10.62,0.01,0.3,0.7,1,Western Europe,DE,51.165690999999995,10.451526,Germany
17,United States,6.939599991000001,United States,NORTHERN AMERICA                   ,298444215.0,9631420.0,31.0,0.21,3.41,6.5,37800.0,97.0,898.0,19.13,0.22,80.65,3.0,14.14,8.26,0.01,0.2,0.79,1,North America and ANZ,US,37.09024,-95.712891,United States
18,Czech Republic,6.9109001160000005,Czech Republic,EASTERN EUROPE                     ,10235455.0,78866.0,129.8,0.0,0.97,3.93,15700.0,99.9,314.3,39.8,3.05,57.15,3.0,9.02,10.59,0.03,0.39,0.57,2,Central and Eastern Europe,CZ,49.817492,15.472961999999999,Czech Republic
19,Belgium,6.863500117999999,Belgium,WESTERN EUROPE                     ,10379067.0,30528.0,340.0,0.22,1.23,4.68,29100.0,98.0,462.6,23.28,0.4,76.32,3.0,10.38,10.27,0.01,0.24,0.75,1,Western Europe,BE,50.503887,4.469936,Belgium
20,United Arab Emirates,6.790800095,United Arab Emirates,NEAR EAST                          ,2602713.0,82880.0,31.4,1.59,1.03,14.51,23200.0,77.9,475.3,0.6,2.25,97.15,1.0,18.96,4.4,0.04,0.59,0.38,1,Middle East and North Africa,AE,23.424076,53.847818000000004,United Arab Emirates
21,Malta,6.772799968999999,Malta,WESTERN EUROPE                     ,400214.0,316.0,1266.5,62.28,2.07,3.89,17700.0,92.8,505.0,28.13,3.13,68.74,,10.22,8.1,0.03,0.23,0.74,2,Western Europe,MT,35.937496,14.375416,Malta
22,France,6.663799762999999,France,WESTERN EUROPE                     ,60876136.0,547030.0,111.3,0.63,0.66,4.26,27600.0,99.0,586.4,33.53,2.07,64.4,4.0,11.99,9.14,0.02,0.21,0.76,1,Western Europe,FR,46.227638,2.213749,France
23,Mexico,6.465000152999999,Mexico,LATIN AMER. & CARIB    ,107449525.0,1972550.0,54.5,0.47,-4.87,20.91,9000.0,92.2,181.6,12.99,1.31,85.7,1.5,20.69,4.74,0.04,0.26,0.7,2,Latin America and Caribbean,MX,23.634501,-102.552784,Mexico
24,Uruguay,6.440100192999999,Uruguay,LATIN AMER. & CARIB    ,3431932.0,176220.0,19.5,0.37,-0.32,11.95,12800.0,98.0,291.4,7.43,0.23,92.34,3.0,13.91,9.05,0.09,0.31,0.6,2,Latin America and Caribbean,UY,-32.522779,-55.765834999999996,Uruguay
25,Saudi Arabia,6.406499863,Saudi Arabia,NEAR EAST                          ,27019731.0,1960582.0,13.8,0.13,-2.71,13.24,11800.0,78.8,140.6,1.67,0.09,98.24,1.0,29.34,2.58,0.03,0.61,0.35,2,Middle East and North Africa,SA,23.885942,45.079162,Saudi Arabia
26,Spain,6.4008998870000005,Spain,WESTERN EUROPE                     ,40397842.0,504782.0,80.0,0.98,0.99,4.42,22000.0,97.9,453.5,26.07,9.87,64.06,3.0,10.06,9.72,0.04,0.3,0.67,1,Western Europe,ES,40.463667,-3.7492199999999998,Spain
27,Guatemala,6.398900032,Guatemala,LATIN AMER. & CARIB    ,12293545.0,108890.0,112.9,0.37,-1.67,35.93,4100.0,70.6,92.1,12.54,5.03,82.43,2.0,29.88,5.2,0.23,0.19,0.59,0,Latin America and Caribbean,GT,15.783470999999999,-90.23075899999999,Guatemala
28,Italy,6.38740015,Italy,WESTERN EUROPE                     ,58133509.0,301230.0,193.0,2.52,2.07,5.94,26700.0,98.6,430.9,27.79,9.53,62.68,,8.72,10.4,0.02,0.29,0.69,1,Western Europe,IT,41.87194,12.56738,Italy
29,Singapore,6.377099991000001,Singapore,ASIA (EX. NEAR EAST)         ,4492150.0,693.0,6482.2,27.85,11.53,2.29,23700.0,92.5,411.4,1.64,0.0,98.36,2.0,9.34,4.28,0.0,0.34,0.66,1,Southeast Asia,SG,1.352083,103.819836,Singapore
30,Brazil,6.375599861,Brazil,LATIN AMER. & CARIB    ,188078227.0,8511965.0,22.1,0.09,-0.03,29.61,7600.0,86.4,225.3,6.96,0.9,92.15,2.0,16.56,6.17,0.08,0.4,0.52,0,Latin America and Caribbean,BR,-14.235004,-51.92528,Brazil
31,Slovenia,6.363399982000001,Slovenia,EASTERN EUROPE                     ,2010347.0,20273.0,99.2,0.23,1.12,4.45,19000.0,99.7,406.1,8.6,1.49,89.91,,8.98,10.31,0.03,0.37,0.6,2,Central and Eastern Europe,SI,46.151241,14.995463,Slovenia
32,El Salvador,6.34829998,El Salvador,LATIN AMER. & CARIB    ,6822378.0,21040.0,324.3,1.46,-3.74,25.1,4800.0,80.2,142.4,31.85,12.07,56.08,2.0,26.61,5.78,0.1,0.3,0.6,0,Latin America and Caribbean,SV,13.794185,-88.89653,El Salvador
33,Panama,6.304800033999999,Panama,LATIN AMER. & CARIB    ,3191319.0,78200.0,40.8,3.18,-0.91,20.47,6300.0,92.6,137.9,7.36,1.98,90.66,2.0,21.74,5.36,0.07,0.16,0.78,0,Latin America and Caribbean,PA,8.537981,-80.782127,Panama
34,Uzbekistan,6.257599831,Uzbekistan,C.W. OF IND. STATES ,27307134.0,447400.0,61.0,0.0,-1.72,71.1,1700.0,99.3,62.9,10.83,0.83,88.34,1.0,26.36,7.84,0.34,0.23,0.43,0,Commonwealth of Independent States,UZ,41.377491,64.585262,Uzbekistan
35,Chile,6.228499889,Chile,LATIN AMER. & CARIB    ,16134219.0,756950.0,21.3,0.85,0.0,8.8,9900.0,96.2,213.0,2.65,0.42,96.93,3.0,15.23,5.81,0.06,0.49,0.45,2,Latin America and Caribbean,CL,-35.675146999999996,-71.542969,Chile
36,Bahrain,6.227300167,Bahrain,NEAR EAST                          ,698585.0,665.0,1050.5,24.21,1.05,17.27,16900.0,89.1,281.3,2.82,5.63,91.55,1.0,17.8,4.14,0.01,0.39,0.61,2,Middle East and North Africa,BH,25.930414000000003,50.637772,Bahrain
37,Lithuania,6.215499877999999,Lithuania,BALTICS                            ,3585906.0,65200.0,55.0,0.14,-0.71,6.89,11400.0,99.6,223.4,45.22,0.91,53.87,,8.75,10.98,0.06,0.33,0.62,2,Central and Eastern Europe,LT,55.169438,23.881275,Lithuania
38,Poland,6.1862998010000005,Poland,EASTERN EUROPE                     ,38536869.0,312685.0,123.3,0.16,-0.49,8.51,11100.0,99.8,306.3,45.91,1.12,52.97,3.0,9.85,9.89,0.05,0.31,0.64,2,Central and Eastern Europe,PL,51.919438,19.145135999999997,Poland
39,Colombia,6.163400172999999,Colombia,LATIN AMER. & CARIB    ,43593035.0,1138910.0,38.3,0.28,-0.31,20.97,6300.0,92.5,176.2,2.42,1.67,95.91,2.0,20.48,5.58,0.13,0.34,0.53,0,Latin America and Caribbean,CO,4.570868,-74.297333,Colombia
40,Nicaragua,6.13710022,Nicaragua,LATIN AMER. & CARIB    ,5570129.0,129494.0,43.0,0.7,-1.22,29.11,2300.0,67.5,39.7,15.94,1.94,82.12,2.0,24.51,4.45,0.17,0.28,0.56,0,Latin America and Caribbean,NI,12.865416,-85.207229,Nicaragua
41,Romania,6.123700142000001,Romania,EASTERN EUROPE                     ,22303552.0,237500.0,93.9,0.09,-0.13,26.43,7000.0,98.4,196.9,40.82,2.25,56.93,3.0,10.7,11.77,0.1,0.35,0.55,0,Central and Eastern Europe,RO,45.943160999999996,24.96676,Romania
42,Kuwait,6.102099895,Kuwait,NEAR EAST                          ,2418393.0,17820.0,135.7,2.8,14.18,9.95,19000.0,83.5,211.0,0.73,0.11,99.16,1.0,21.94,2.41,0.0,0.48,0.52,2,Middle East and North Africa,KW,29.311659999999996,47.481766,Kuwait
43,Mauritius,6.101299762999999,Mauritius,SUB-SAHARAN AFRICA                 ,1240827.0,2040.0,608.3,8.68,-0.9,15.03,11400.0,85.6,289.3,49.26,2.96,47.78,2.0,15.43,6.86,0.06,0.3,0.64,2,Sub-Saharan Africa,MU,-20.348404000000002,57.552152,Mauritius
44,Kazakhstan,6.0578999520000005,Kazakhstan,C.W. OF IND. STATES ,15233244.0,2717300.0,5.6,0.0,-3.35,29.21,6300.0,98.4,164.1,7.98,0.05,91.97,4.0,16.0,9.42,0.07,0.39,0.55,0,Commonwealth of Independent States,KZ,48.019573,66.923684,Kazakhstan
45,Estonia,6.0218000410000005,Estonia,BALTICS                            ,1324333.0,45226.0,29.3,8.39,-3.16,7.87,12300.0,99.8,333.8,16.04,0.45,83.51,3.0,10.04,13.25,0.04,0.29,0.67,2,Central and Eastern Europe,EE,58.595271999999994,25.013607,Estonia
46,Philippines,6.006000042,Philippines,ASIA (EX. NEAR EAST)         ,89468677.0,300000.0,298.2,12.1,-1.5,23.51,4600.0,92.6,38.4,18.95,16.77,64.28,2.0,24.89,5.41,0.14,0.33,0.53,0,Southeast Asia,PH,12.879721,121.77401699999999,Philippines
47,Hungary,6.000400066,Hungary,EASTERN EUROPE                     ,9981334.0,93030.0,107.3,0.0,0.86,8.57,13900.0,99.4,336.2,50.09,2.06,47.85,3.0,9.72,13.11,0.04,0.31,0.65,2,Central and Eastern Europe,HU,47.162494,19.503304,Hungary
48,Thailand,5.9987998010000005,Thailand,ASIA (EX. NEAR EAST)         ,64631595.0,514000.0,125.7,0.63,0.0,20.48,7400.0,92.6,108.9,29.36,6.46,64.18,2.0,13.87,7.04,0.1,0.44,0.46,0,Southeast Asia,TH,15.870032,100.992541,Thailand
49,Argentina,5.974699974,Argentina,LATIN AMER. & CARIB    ,39921833.0,2766890.0,14.4,0.18,0.61,15.18,11200.0,97.1,220.4,12.31,0.48,87.21,3.0,16.73,7.55,0.1,0.36,0.55,2,Latin America and Caribbean,AR,-38.416097,-63.616671999999994,Argentina
50,Honduras,5.953199862999999,Honduras,LATIN AMER. & CARIB    ,7326496.0,112090.0,65.4,0.73,-1.99,29.32,2600.0,76.2,67.5,9.55,3.22,87.23,2.0,28.24,5.28,0.14,0.31,0.55,0,Latin America and Caribbean,HN,15.199998999999998,-86.241905,Honduras
51,Latvia,5.9499998089999995,Latvia,BALTICS                            ,2274735.0,64589.0,35.2,0.82,-2.23,9.55,10200.0,99.8,321.4,29.67,0.47,69.86,3.0,9.24,13.66,0.04,0.26,0.7,2,Central and Eastern Europe,LV,56.879635,24.603189,Latvia
52,Ecuador,5.925199986,Ecuador,LATIN AMER. & CARIB    ,13547510.0,283560.0,47.8,0.79,-8.58,23.66,3300.0,92.5,125.6,5.85,4.93,89.22,2.0,22.29,4.23,0.07,0.31,0.62,0,Latin America and Caribbean,EC,-1.8312389999999998,-78.183406,Ecuador
53,Portugal,5.9109001160000005,Portugal,WESTERN EUROPE                     ,10605870.0,92391.0,114.8,1.94,3.57,5.05,18000.0,93.3,399.2,21.75,7.81,70.44,3.0,10.72,10.5,0.05,0.27,0.67,2,Western Europe,PT,39.399871999999995,-8.224454,Portugal
54,Jamaica,5.889800072000001,Jamaica,LATIN AMER. & CARIB    ,2758124.0,10991.0,250.9,9.3,-4.92,12.36,3900.0,87.9,124.0,16.07,10.16,73.77,2.0,20.82,6.52,0.05,0.34,0.62,0,Latin America and Caribbean,JM,18.109581,-77.297508,Jamaica
55,Japan,5.870800018,Japan,ASIA (EX. NEAR EAST)         ,127463611.0,377835.0,337.4,7.87,0.0,3.26,28200.0,99.0,461.2,12.19,0.96,86.85,3.0,9.37,9.16,0.02,0.26,0.73,1,East Asia,JP,36.204824,138.252924,Japan
56,Peru,5.796800137000001,Peru,LATIN AMER. & CARIB    ,28302603.0,1285220.0,22.0,0.19,-1.05,31.94,5100.0,90.9,79.5,2.89,0.4,96.71,1.5,20.48,6.23,0.08,0.27,0.65,0,Latin America and Caribbean,PE,-9.189967,-75.015152,Peru
57,Serbia,5.77820015,Serbia,EASTERN EUROPE                     ,9396411.0,88361.0,106.3,0.0,-1.33,12.89,2200.0,93.0,285.8,33.35,3.2,63.45,,,,0.17,0.26,0.58,0,Central and Eastern Europe,RS,44.016521000000004,21.005859,Serbia
58,Bolivia,5.747499942999999,Bolivia,LATIN AMER. & CARIB    ,8989046.0,1098580.0,8.2,0.0,-1.32,53.11,2400.0,87.2,71.9,2.67,0.19,97.14,1.5,23.3,7.53,0.13,0.35,0.52,0,Latin America and Caribbean,BO,-16.290154,-63.588653,Bolivia
59,Pakistan,5.69329977,Pakistan,ASIA (EX. NEAR EAST)         ,165803560.0,803940.0,206.2,0.13,-2.77,72.44,2100.0,45.7,31.8,27.87,0.87,71.26,1.0,29.74,8.23,0.22,0.25,0.53,0,South Asia,PK,30.375321000000003,69.345116,Pakistan
60,Paraguay,5.6921000479999995,Paraguay,LATIN AMER. & CARIB    ,6506464.0,406750.0,16.0,0.0,-0.08,25.63,4700.0,94.0,49.2,7.6,0.23,92.17,2.0,29.1,4.49,0.22,0.21,0.57,0,Latin America and Caribbean,PY,-23.442503,-58.44383199999999,Paraguay
61,Dominican Republic,5.6891999239999995,Dominican Republic,LATIN AMER. & CARIB    ,9183984.0,48730.0,188.5,2.64,-3.22,32.38,6000.0,84.7,97.4,22.65,10.33,67.02,2.0,23.22,5.73,0.11,0.31,0.58,0,Latin America and Caribbean,DO,18.735692999999998,-70.162651,Dominican Republic
62,Moldova,5.607500076,Moldova,C.W. OF IND. STATES ,4466706.0,33843.0,132.0,0.0,-0.26,40.42,1800.0,99.1,208.1,55.3,10.79,33.91,,15.7,12.64,0.21,0.23,0.56,0,Commonwealth of Independent States,MD,47.411631,28.369884999999996,Moldova
63,Tajikistan,5.555699825,Tajikistan,C.W. OF IND. STATES ,7320815.0,143100.0,51.2,0.0,-2.86,110.76,1000.0,99.4,33.5,6.61,0.92,92.47,2.0,32.65,8.25,0.23,0.29,0.48,0,Commonwealth of Independent States,TJ,38.861034000000004,71.276093,Tajikistan
64,Russia,5.546000004,Russia,C.W. OF IND. STATES ,142893540.0,17075200.0,8.4,0.22,1.02,15.39,8900.0,99.6,280.6,7.33,0.11,92.56,,9.95,14.65,0.05,0.37,0.58,2,Commonwealth of Independent States,RU,61.52401,105.31875600000001,Russia
65,Kyrgyzstan,5.541500092000001,Kyrgyzstan,C.W. OF IND. STATES ,5213898.0,198500.0,26.3,0.0,-2.45,35.64,1600.0,97.0,84.0,7.3,0.35,92.35,2.5,22.8,7.08,0.35,0.21,0.44,0,Commonwealth of Independent States,KG,41.20438,74.766098,Kyrgyzstan
66,Belarus,5.539899826,Belarus,C.W. OF IND. STATES ,10293011.0,207600.0,49.6,0.0,2.54,13.37,6100.0,99.6,319.1,29.55,0.6,69.85,4.0,11.16,14.02,0.09,0.32,0.59,0,Commonwealth of Independent States,BY,53.709807,27.953389,Belarus
67,Greece,5.514999866,Greece,WESTERN EUROPE                     ,10688058.0,131940.0,81.0,10.37,2.35,5.53,20000.0,97.5,589.7,21.1,8.78,70.12,3.0,9.68,10.24,0.05,0.21,0.73,2,Western Europe,GR,39.074208,21.824312,Greece
68,Croatia,5.504700184,Croatia,EASTERN EUROPE                     ,4494749.0,56542.0,79.5,10.32,1.58,6.84,10600.0,98.5,420.4,26.09,2.27,71.65,,9.61,11.48,0.07,0.31,0.62,2,Central and Eastern Europe,HR,45.1,15.2,Croatia
69,Libya,5.488800049,Libya,NORTHERN AFRICA                    ,5900754.0,1759540.0,3.4,0.1,0.0,24.6,6400.0,82.6,127.1,1.03,0.19,98.78,,26.49,3.48,0.08,0.5,0.43,0,Middle East and North Africa,LY,26.3351,17.228331,Libya
70,Mongolia,5.4562001229999995,Mongolia,ASIA (EX. NEAR EAST)         ,2832224.0,1564116.0,1.8,0.0,0.0,53.79,1800.0,97.8,55.1,0.77,0.0,99.23,1.0,21.59,6.95,0.21,0.21,0.58,0,East Asia,MN,46.862496,103.84665600000001,Mongolia
71,Malaysia,5.384300232,Malaysia,ASIA (EX. NEAR EAST)         ,24385858.0,329750.0,74.0,1.42,0.0,17.7,9000.0,88.7,179.0,5.48,17.61,76.91,2.0,22.86,5.05,0.08,0.48,0.44,2,Southeast Asia,MY,4.210483999999999,101.97576600000001,Malaysia
72,Vietnam,5.353499889,Vietnam,ASIA (EX. NEAR EAST)         ,84402966.0,329560.0,256.1,1.05,-0.45,25.95,2500.0,90.3,187.7,19.97,5.95,74.08,2.0,16.86,6.22,0.21,0.41,0.38,0,Southeast Asia,VN,14.058323999999999,108.277199,Vietnam
73,Indonesia,5.285600185,Indonesia,ASIA (EX. NEAR EAST)         ,245452739.0,1919440.0,127.9,2.85,0.0,35.6,3200.0,87.9,52.0,11.32,7.23,81.45,2.0,20.34,6.25,0.13,0.46,0.41,0,Southeast Asia,ID,-0.789275,113.921327,Indonesia
74,Benin,5.21600008,Benin,SUB-SAHARAN AFRICA                 ,7862944.0,112620.0,69.8,0.11,0.0,85.0,1100.0,40.9,9.7,18.08,2.4,79.52,2.0,38.85,12.22,0.32,0.14,0.55,0,Sub-Saharan Africa,BJ,9.30769,2.315834,Benin
75,Maldives,5.197599888,Maldives,ASIA (EX. NEAR EAST)         ,359008.0,300.0,1196.7,214.67,0.0,56.52,3900.0,97.2,90.0,13.33,16.67,70.0,2.0,34.81,7.06,0.2,0.18,0.62,0,South Asia,MV,3.202778,73.22068,Maldives
76,Azerbaijan,5.164800167,Azerbaijan,C.W. OF IND. STATES ,7961619.0,86600.0,91.9,0.0,-4.9,81.74,3400.0,97.0,137.1,19.63,2.71,77.66,1.0,20.74,9.75,0.14,0.46,0.4,0,Commonwealth of Independent States,AZ,40.143105,47.576927000000005,Azerbaijan
77,Ghana,5.1479997630000005,Ghana,SUB-SAHARAN AFRICA                 ,22409572.0,239460.0,93.6,0.23,-0.64,51.43,2200.0,74.8,14.4,16.26,9.67,74.07,2.0,30.52,9.72,0.37,0.25,0.39,0,Sub-Saharan Africa,GH,7.946527000000001,-1.0231940000000002,Ghana
78,Nepal,5.137199879,Nepal,ASIA (EX. NEAR EAST)         ,28287147.0,147181.0,192.2,0.0,0.0,66.98,1400.0,45.2,15.9,21.68,0.64,77.68,,30.98,9.31,0.38,0.21,0.41,0,South Asia,NP,28.394857000000002,84.12400799999999,Nepal
79,Turkey,5.131800175,Turkey,NEAR EAST                          ,70413958.0,780580.0,90.2,0.92,0.0,41.04,6700.0,86.5,269.5,30.93,3.31,65.76,3.0,16.62,5.97,0.12,0.3,0.59,0,Middle East and North Africa,TR,38.963745,35.243322,Turkey
80,China,5.123899937,China,ASIA (EX. NEAR EAST)         ,1313973713.0,9596960.0,136.9,0.15,-0.4,24.18,5000.0,90.9,266.7,15.4,1.25,83.35,1.5,13.25,6.97,0.13,0.47,0.4,0,East Asia,CN,35.86166,104.195397,China
81,Turkmenistan,5.119100093999999,Turkmenistan,C.W. OF IND. STATES ,5042920.0,488100.0,10.3,0.0,-0.86,73.08,5800.0,98.0,74.6,3.72,0.14,96.14,1.0,27.61,8.6,0.21,0.38,0.41,0,Commonwealth of Independent States,TM,38.969719,59.556278000000006,Turkmenistan
82,Bulgaria,5.101500034,Bulgaria,EASTERN EUROPE                     ,7385367.0,110910.0,66.6,0.32,-4.58,20.55,7600.0,98.6,336.3,40.02,1.92,58.06,3.0,9.65,14.27,0.09,0.3,0.6,0,Central and Eastern Europe,BG,42.733883,25.48583,Bulgaria
83,Morocco,5.094799995,Morocco,NORTHERN AFRICA                    ,33241259.0,446550.0,74.4,0.41,-0.98,41.62,4000.0,51.7,40.4,19.61,2.17,78.22,,21.98,5.58,0.22,0.36,0.43,0,Middle East and North Africa,MA,31.791702,-7.09262,Morocco
84,Cameroon,5.084899902,Cameroon,SUB-SAHARAN AFRICA                 ,17340702.0,475440.0,36.5,0.08,0.0,68.26,1800.0,79.0,5.7,12.81,2.58,84.61,1.5,33.89,13.47,0.45,0.17,0.38,0,Sub-Saharan Africa,CM,7.369722,12.354722,Cameroon
85,Venezuela,5.053199768,Venezuela,LATIN AMER. & CARIB    ,25730435.0,912050.0,28.2,0.31,-0.04,22.2,4800.0,93.4,140.1,2.95,0.92,96.13,2.0,18.71,4.92,0.04,0.42,0.54,0,Latin America and Caribbean,VE,6.42375,-66.58973,Venezuela
86,Algeria,5.005099773,Algeria,NORTHERN AFRICA                    ,32930091.0,2381740.0,13.8,0.04,-0.39,31.0,6000.0,70.0,78.1,3.22,0.25,96.53,1.0,17.14,4.61,0.1,0.6,0.3,0,Middle East and North Africa,DZ,28.033886,1.6596259999999998,Algeria
87,Senegal,4.980800152,Senegal,SUB-SAHARAN AFRICA                 ,11987121.0,196190.0,61.1,0.27,0.2,55.51,1600.0,40.2,22.2,12.78,0.21,87.01,2.0,32.78,9.42,0.17,0.21,0.62,0,Sub-Saharan Africa,SN,14.497401000000002,-14.452361999999999,Senegal
88,Guinea,4.949299812,Guinea,SUB-SAHARAN AFRICA                 ,9690222.0,245857.0,39.4,0.13,-3.06,90.37,2100.0,35.9,2.7,3.63,2.58,93.79,2.0,41.76,15.48,0.24,0.36,0.4,0,Sub-Saharan Africa,GN,9.945587,-9.696645,Guinea
89,Niger,4.909599781,Niger,SUB-SAHARAN AFRICA                 ,12525094.0,1267000.0,9.9,0.0,-0.67,121.69,800.0,17.6,1.9,3.54,0.01,96.45,1.0,50.73,20.91,0.39,0.17,0.44,0,Sub-Saharan Africa,NE,17.607789,8.081666,Niger
90,Laos,4.888599873,Laos,ASIA (EX. NEAR EAST)         ,6368481.0,236800.0,26.9,0.0,0.0,85.22,1700.0,66.4,14.1,3.8,0.35,95.85,2.0,35.49,11.55,0.46,0.29,0.26,0,Southeast Asia,LA,19.856270000000002,102.495496,Laos
91,Albania,4.882699966000001,Albania,EASTERN EUROPE                     ,3581655.0,28748.0,124.6,1.26,-4.93,21.52,4500.0,86.5,71.2,21.09,4.42,74.49,3.0,15.11,5.22,0.23,0.19,0.58,0,Central and Eastern Europe,AL,41.153332,20.168331,Albania
92,Cambodia,4.8484001160000005,Cambodia,ASIA (EX. NEAR EAST)         ,13881427.0,181040.0,76.7,0.24,0.0,71.48,1900.0,69.4,2.6,20.96,0.61,78.43,2.0,26.9,9.06,0.35,0.3,0.35,0,Southeast Asia,KH,12.565679,104.990963,Cambodia
93,Bangladesh,4.832799911,Bangladesh,ASIA (EX. NEAR EAST)         ,147365352.0,144000.0,1023.4,0.4,-0.71,62.6,1900.0,43.1,7.3,62.11,3.07,34.82,2.0,29.8,8.27,0.2,0.2,0.6,0,South Asia,BD,23.684994,90.35633100000001,Bangladesh
94,Gabon,4.829299927,Gabon,SUB-SAHARAN AFRICA                 ,1424906.0,267667.0,5.3,0.33,0.0,53.64,5500.0,63.2,27.4,1.26,0.66,98.08,2.0,36.16,12.25,0.06,0.59,0.35,0,Sub-Saharan Africa,GA,-0.803689,11.609444,Gabon
95,South Africa,4.814099789,South Africa,SUB-SAHARAN AFRICA                 ,44187637.0,1219912.0,36.2,0.23,-0.29,61.81,10700.0,86.4,107.0,12.08,0.79,87.13,1.0,18.2,22.0,0.03,0.3,0.67,2,Sub-Saharan Africa,ZA,-30.559482,22.937506,South Africa
96,Iraq,4.7848000530000006,Iraq,NEAR EAST                          ,26783383.0,437072.0,61.3,0.01,0.0,50.25,1500.0,40.4,38.6,13.15,0.78,86.07,1.0,31.98,5.37,0.07,0.67,0.26,0,Middle East and North Africa,IQ,33.223191,43.679291,Iraq
97,Lebanon,4.771500111,Lebanon,NEAR EAST                          ,3874050.0,10400.0,372.5,2.16,0.0,24.52,4800.0,87.4,255.6,16.62,13.98,69.4,,18.52,6.21,0.12,0.21,0.67,0,Middle East and North Africa,LB,33.854721000000005,35.862285,Lebanon
98,Burkina Faso,4.768700123,Burkina Faso,SUB-SAHARAN AFRICA                 ,13902972.0,274200.0,50.7,0.0,0.0,97.57,1100.0,26.6,7.0,14.43,0.19,85.38,2.0,45.62,15.6,0.32,0.2,0.48,0,Sub-Saharan Africa,BF,12.238333,-1.561593,Burkina Faso
99,Mali,4.729300021999999,Mali,SUB-SAHARAN AFRICA                 ,11716829.0,1240000.0,9.5,0.0,-0.33,116.79,900.0,46.4,6.4,3.82,0.03,96.15,2.0,49.82,16.89,0.45,0.17,0.38,0,Sub-Saharan Africa,ML,17.570692,-3.9961660000000006,Mali
100,Nigeria,4.724100113,Nigeria,SUB-SAHARAN AFRICA                 ,131859731.0,923768.0,142.7,0.09,0.26,98.8,900.0,68.0,9.3,31.29,2.96,65.75,1.5,40.43,16.94,0.27,0.49,0.24,0,Sub-Saharan Africa,NG,9.081999,8.675277000000001,Nigeria
101,Armenia,4.676799774,Armenia,C.W. OF IND. STATES ,2976372.0,29800.0,99.9,0.0,-6.47,23.28,3500.0,98.6,195.7,17.55,2.3,80.15,4.0,12.07,8.23,0.24,0.34,0.42,0,Commonwealth of Independent States,AM,40.069099,45.038189,Armenia
102,Georgia,4.672599792,Georgia,C.W. OF IND. STATES ,4661473.0,69700.0,66.9,0.44,-4.7,18.59,2500.0,99.0,146.6,11.44,3.86,84.7,3.0,10.41,9.23,0.17,0.28,0.55,0,Commonwealth of Independent States,GE,42.315407,43.356891999999995,Georgia
103,Iran,4.672399998,Iran,ASIA (EX. NEAR EAST)         ,68688433.0,1648000.0,41.7,0.15,-0.84,41.58,7000.0,79.4,276.4,8.72,1.39,89.89,1.0,17.0,5.55,0.12,0.42,0.46,0,Middle East and North Africa,IR,32.427908,53.68804599999999,Iran
104,Jordan,4.6333999630000005,Jordan,NEAR EAST                          ,5906760.0,92300.0,64.0,0.03,6.59,17.35,4300.0,91.3,104.5,2.67,1.83,95.5,1.0,21.25,2.65,0.03,0.29,0.68,0,Middle East and North Africa,JO,30.585164000000002,36.238414,Jordan
105,Mozambique,4.623600006,Mozambique,SUB-SAHARAN AFRICA                 ,19686505.0,801590.0,24.6,0.31,0.0,130.79,1200.0,47.8,3.5,5.1,0.3,94.6,2.0,35.18,21.35,0.26,0.35,0.39,0,Sub-Saharan Africa,MZ,-18.665695,35.529562,Mozambique
106,Kenya,4.583000183,Kenya,SUB-SAHARAN AFRICA                 ,34707817.0,582650.0,59.6,0.09,-0.1,61.47,1000.0,85.1,8.1,8.08,0.98,90.94,1.5,39.72,14.02,0.16,0.19,0.65,0,Sub-Saharan Africa,KE,-0.023559,37.906193,Kenya
107,Namibia,4.571100235,Namibia,SUB-SAHARAN AFRICA                 ,2044147.0,825418.0,2.5,0.19,0.0,48.98,7200.0,84.0,62.6,0.99,0.0,99.01,1.0,24.32,18.86,0.1,0.32,0.59,0,Sub-Saharan Africa,,-22.957639999999998,18.49041,Namibia
108,Ukraine,4.56069994,Ukraine,C.W. OF IND. STATES ,46710816.0,603700.0,77.4,0.46,-0.39,20.34,5400.0,99.7,259.9,56.21,1.61,42.18,3.0,8.82,14.39,0.19,0.45,0.36,0,Commonwealth of Independent States,UA,48.379433,31.16558,Ukraine
109,Liberia,4.557899952,Liberia,SUB-SAHARAN AFRICA                 ,3042004.0,111370.0,27.3,0.52,0.0,128.87,1000.0,57.5,2.3,3.95,2.28,93.77,2.0,44.77,23.1,0.77,0.05,0.18,0,Sub-Saharan Africa,LR,6.4280550000000005,-9.429499,Liberia
110,Uganda,4.43200016,Uganda,SUB-SAHARAN AFRICA                 ,28195754.0,236040.0,119.5,0.0,0.0,67.83,1400.0,69.9,3.6,25.88,10.65,63.47,2.0,47.35,12.24,0.31,0.22,0.47,0,Sub-Saharan Africa,UG,1.373333,32.290275,Uganda
111,Chad,4.422699928,Chad,SUB-SAHARAN AFRICA                 ,9944201.0,1284000.0,7.7,0.0,-0.11,93.82,1200.0,47.5,1.3,2.86,0.02,97.12,2.0,45.73,16.38,0.34,0.26,0.41,0,Sub-Saharan Africa,TD,15.454166,18.732207,Chad
112,Tunisia,4.392199993,Tunisia,NORTHERN AFRICA                    ,10175014.0,163610.0,62.2,0.7,-0.57,24.77,6900.0,74.2,123.6,17.86,13.74,68.4,3.0,15.52,5.13,0.13,0.32,0.55,0,Middle East and North Africa,TN,33.886917,9.537499,Tunisia
113,Mauritania,4.374599934,Mauritania,SUB-SAHARAN AFRICA                 ,3177388.0,1030700.0,3.1,0.07,0.0,70.89,1800.0,41.7,12.9,0.48,0.01,99.51,1.0,40.99,12.16,0.25,0.29,0.46,0,Sub-Saharan Africa,MR,21.00789,-10.940835,Mauritania
114,Sri Lanka,4.327000141,Sri Lanka,ASIA (EX. NEAR EAST)         ,20222240.0,65610.0,308.2,2.04,-1.31,14.35,3700.0,92.3,61.5,13.86,15.7,70.44,2.0,15.51,6.52,0.18,0.28,0.55,0,South Asia,LK,7.873054,80.77179699999999,Sri Lanka
115,Swaziland,4.3081002239999995,Swaziland,SUB-SAHARAN AFRICA                 ,1136334.0,17363.0,65.5,0.0,0.0,69.27,4900.0,81.6,30.8,10.35,0.7,88.95,2.5,27.41,29.74,0.12,0.52,0.37,0,Sub-Saharan Africa,SZ,-26.522503000000004,31.465866,Swaziland
116,Comoros,4.288599968,Comoros,SUB-SAHARAN AFRICA                 ,690948.0,2170.0,318.4,15.67,0.0,74.93,700.0,56.5,24.5,35.87,23.32,40.81,2.0,36.93,8.2,0.4,0.04,0.56,0,Sub-Saharan Africa,KM,-11.875001,43.872219,Comoros
117,Togo,4.187200069,Togo,SUB-SAHARAN AFRICA                 ,5548702.0,56785.0,97.7,0.1,0.0,66.61,1500.0,60.9,10.6,46.15,2.21,51.64,2.0,37.01,9.83,0.4,0.2,0.4,0,Sub-Saharan Africa,TG,8.619543,0.824782,Togo
118,Ethiopia,4.186200142,Ethiopia,SUB-SAHARAN AFRICA                 ,74777981.0,1127127.0,66.3,0.0,0.0,95.32,700.0,42.7,8.2,10.71,0.75,88.54,2.0,37.98,14.86,0.48,0.1,0.43,0,Sub-Saharan Africa,ET,9.145,40.489672999999996,Ethiopia
119,Madagascar,4.165599823,Madagascar,SUB-SAHARAN AFRICA                 ,18595469.0,587040.0,31.7,0.82,0.0,76.83,800.0,68.9,3.6,5.07,1.03,93.91,2.0,41.41,11.11,0.28,0.17,0.56,0,Sub-Saharan Africa,MG,-18.766947000000002,46.869107,Madagascar
120,Egypt,4.151400089,Egypt,NORTHERN AFRICA                    ,78887007.0,1001450.0,78.8,0.24,-0.22,32.59,4000.0,57.7,131.8,2.87,0.48,96.65,1.0,22.94,5.23,0.15,0.36,0.49,0,Middle East and North Africa,EG,26.820553000000004,30.802497999999996,Egypt
121,Sierra Leone,3.926399946,Sierra Leone,SUB-SAHARAN AFRICA                 ,6005250.0,71740.0,83.7,0.56,0.0,143.64,500.0,31.4,4.0,6.98,0.89,92.13,2.0,45.76,23.03,0.49,0.31,0.21,0,Sub-Saharan Africa,SL,8.460555000000001,-11.779889,Sierra Leone
122,Burundi,3.775300026,Burundi,SUB-SAHARAN AFRICA                 ,8090068.0,27830.0,290.7,0.0,-0.06,69.29,600.0,51.6,3.4,35.05,14.02,50.93,2.0,42.22,13.46,0.46,0.2,0.33,0,Sub-Saharan Africa,BI,-3.3730559999999996,29.918885999999997,Burundi
123,Zambia,3.759399891,Zambia,SUB-SAHARAN AFRICA                 ,11502010.0,752614.0,15.3,0.0,0.0,88.29,800.0,80.6,8.2,7.08,0.03,92.9,2.0,41.0,19.93,0.22,0.29,0.49,0,Sub-Saharan Africa,ZM,-13.133897,27.849332,Zambia
124,Haiti,3.720799923,Haiti,LATIN AMER. & CARIB    ,8308504.0,27750.0,299.4,6.38,-3.4,73.45,1600.0,52.9,16.9,28.3,11.61,60.09,2.0,36.44,12.17,0.28,0.2,0.52,0,Latin America and Caribbean,HT,18.971187,-72.28521500000001,Haiti
125,Lesotho,3.6528000830000003,Lesotho,SUB-SAHARAN AFRICA                 ,2022331.0,30355.0,66.6,0.0,-0.74,84.23,3000.0,84.8,23.7,10.87,0.13,89.0,3.0,24.75,28.71,0.16,0.44,0.39,0,Sub-Saharan Africa,LS,-29.609988,28.233608,Lesotho
126,India,3.573299885,India,ASIA (EX. NEAR EAST)         ,1095351995.0,3287590.0,333.2,0.21,-0.07,56.29,2900.0,59.5,45.4,54.4,2.74,42.86,2.5,22.01,8.18,0.19,0.28,0.54,0,South Asia,IN,20.593684,78.96288,India
127,Malawi,3.538000107,Malawi,SUB-SAHARAN AFRICA                 ,13013926.0,118480.0,109.8,0.0,0.0,103.32,600.0,62.7,7.9,23.38,1.49,75.13,2.0,43.13,19.33,0.34,0.16,0.5,0,Sub-Saharan Africa,MW,-13.254307999999998,34.301525,Malawi
128,Yemen,3.5274000169999997,Yemen,NEAR EAST                          ,21456188.0,527970.0,40.6,0.36,0.0,61.5,800.0,50.2,37.2,2.78,0.24,96.98,1.0,42.89,8.3,0.14,0.47,0.39,0,Middle East and North Africa,YE,15.552726999999999,48.516388,Yemen
129,Botswana,3.4788999560000002,Botswana,SUB-SAHARAN AFRICA                 ,1639833.0,600370.0,2.7,0.0,0.0,54.58,9000.0,79.8,80.5,0.65,0.01,99.34,1.0,23.08,29.5,0.02,0.47,0.51,2,Sub-Saharan Africa,BW,-22.328474,24.684866,Botswana
130,Tanzania,3.4762001039999997,Tanzania,SUB-SAHARAN AFRICA                 ,37445392.0,945087.0,39.6,0.15,-2.06,98.54,600.0,78.2,4.0,4.52,1.08,94.4,,37.71,16.39,0.43,0.17,0.4,0,Sub-Saharan Africa,TZ,-6.369028,34.888822,Tanzania
131,Rwanda,3.312299967,Rwanda,SUB-SAHARAN AFRICA                 ,8648248.0,26338.0,328.4,0.0,0.0,91.23,1300.0,70.4,2.7,40.54,12.16,47.3,3.0,40.37,16.09,0.4,0.23,0.37,0,Sub-Saharan Africa,RW,-1.940278,29.873888,Rwanda
132,Zimbabwe,3.2992000580000003,Zimbabwe,SUB-SAHARAN AFRICA                 ,12236805.0,390580.0,31.3,0.0,0.0,67.69,1900.0,90.7,26.8,8.32,0.34,91.34,2.0,28.01,21.84,0.18,0.24,0.58,0,Sub-Saharan Africa,ZW,-19.015438,29.154857,Zimbabwe
133,Afghanistan,2.566900015,Afghanistan,ASIA (EX. NEAR EAST)         ,31056997.0,647500.0,48.0,0.0,23.06,163.07,700.0,36.0,3.2,12.13,0.22,87.65,1.0,46.6,20.34,0.38,0.24,0.38,0,South Asia,AF,33.93911,67.709953,Afghanistan
